{"schema":{"fields":[{"name":"index","type":"string"},{"name":"Pools","type":"string"},{"name":"Locations","type":"string"},{"name":"Carbon_Emission_Factors","type":"number"},{"name":"Lat","type":"number"},{"name":"Long","type":"number"},{"name":"electricity_consumption_per_region","type":"number"},{"name":"CO2_emissions","type":"number"}],"primaryKey":["index"],"pandas_version":"1.4.0"},"data":[{"index":0,"Pools":"F2Pool","Locations":"Frankfurt, Germany","Carbon_Emission_Factors":0.58883,"Lat":50.110924,"Long":8.682127,"electricity_consumption_per_region":3.5556128655,"CO2_emissions":2093.6515235666},{"index":1,"Pools":"F2Pool","Locations":"Ashburn, Virginia, United States","Carbon_Emission_Factors":0.2925,"Lat":39.039474,"Long":-77.491806,"electricity_consumption_per_region":3.5556128655,"CO2_emissions":1040.0167631459},{"index":2,"Pools":"F2Pool","Locations":"San Mateo, California, United States","Carbon_Emission_Factors":0.20553,"Lat":37.54715,"Long":-122.3144,"electricity_consumption_per_region":3.5556128655,"CO2_emissions":730.7851122372},{"index":3,"Pools":"F2Pool","Locations":"Hangzhou, Zhejiang, China","Carbon_Emission_Factors":0.718581239,"Lat":30.251921,"Long":120.168068,"electricity_consumption_per_region":3.5556128655,"CO2_emissions":2554.9966982638},{"index":4,"Pools":"Poolin","Locations":"Frankfurt, Germany","Carbon_Emission_Factors":0.58883,"Lat":50.110924,"Long":8.682127,"electricity_consumption_per_region":4.7787436912,"CO2_emissions":2813.8676476735},{"index":5,"Pools":"Poolin","Locations":"Ashburn, Virginia, United States","Carbon_Emission_Factors":0.2925,"Lat":39.039474,"Long":-77.491806,"electricity_consumption_per_region":4.7787436912,"CO2_emissions":1397.7825296681},{"index":6,"Pools":"Poolin","Locations":"Hangzhou, Zhejiang, China","Carbon_Emission_Factors":0.718581239,"Lat":30.251921,"Long":120.168068,"electricity_consumption_per_region":4.7787436912,"CO2_emissions":3433.9155624666},{"index":7,"Pools":"AntPool","Locations":"Ashburn, Virginia, United States","Carbon_Emission_Factors":0.2925,"Lat":39.039474,"Long":-77.491806,"electricity_consumption_per_region":1.7294500978,"CO2_emissions":505.8641535942},{"index":8,"Pools":"AntPool","Locations":"Portland, Oregon, United States","Carbon_Emission_Factors":0.15495,"Lat":45.516022,"Long":-122.681427,"electricity_consumption_per_region":1.7294500978,"CO2_emissions":267.9782926476},{"index":9,"Pools":"AntPool","Locations":"Hangzhou, Zhejiang, China","Carbon_Emission_Factors":0.718581239,"Lat":30.251921,"Long":120.168068,"electricity_consumption_per_region":1.7294500978,"CO2_emissions":1242.7503940355},{"index":10,"Pools":"AntPool","Locations":"London, England, United Kingdom","Carbon_Emission_Factors":0.316,"Lat":51.500149,"Long":-0.12624,"electricity_consumption_per_region":1.7294500978,"CO2_emissions":546.5062308915},{"index":11,"Pools":"AntPool","Locations":"Sydney, Australia","Carbon_Emission_Factors":0.79,"Lat":-33.8688,"Long":151.2093,"electricity_consumption_per_region":1.7294500978,"CO2_emissions":1366.2655772287},{"index":12,"Pools":"ViaBTC","Locations":"Frankfurt, Germany","Carbon_Emission_Factors":0.58883,"Lat":50.110924,"Long":8.682127,"electricity_consumption_per_region":2.5410779945,"CO2_emissions":1496.2629555089},{"index":13,"Pools":"ViaBTC","Locations":"Ashburn, Virginia, United States","Carbon_Emission_Factors":0.2925,"Lat":39.039474,"Long":-77.491806,"electricity_consumption_per_region":2.5410779945,"CO2_emissions":743.265313395},{"index":14,"Pools":"ViaBTC","Locations":"Hangzhou, Zhejiang, China","Carbon_Emission_Factors":0.718581239,"Lat":30.251921,"Long":120.168068,"electricity_consumption_per_region":2.5410779945,"CO2_emissions":1825.9709736926},{"index":15,"Pools":"BTC.com","Locations":"Frankfurt, Germany","Carbon_Emission_Factors":0.58883,"Lat":50.110924,"Long":8.682127,"electricity_consumption_per_region":2.2755922339,"CO2_emissions":1339.9369750826},{"index":16,"Pools":"BTC.com","Locations":"Ashburn, Virginia, United States","Carbon_Emission_Factors":0.2925,"Lat":39.039474,"Long":-77.491806,"electricity_consumption_per_region":2.2755922339,"CO2_emissions":665.6107284134},{"index":17,"Pools":"BTC.com","Locations":"Seattle, Washington, United States","Carbon_Emission_Factors":0.09674,"Lat":47.6062,"Long":-122.3321,"electricity_consumption_per_region":2.2755922339,"CO2_emissions":220.1407927067},{"index":18,"Pools":"BTC.com","Locations":"New Jersey, United States","Carbon_Emission_Factors":0.2233,"Lat":40.0583,"Long":-74.4057,"electricity_consumption_per_region":2.2755922339,"CO2_emissions":508.1397458281},{"index":19,"Pools":"BTC.com","Locations":"Hangzhou, Zhejiang, China","Carbon_Emission_Factors":0.718581239,"Lat":30.251921,"Long":120.168068,"electricity_consumption_per_region":2.2755922339,"CO2_emissions":1635.1978868889},{"index":20,"Pools":"Binance Pool","Locations":"Frankfurt, Germany","Carbon_Emission_Factors":0.58883,"Lat":50.110924,"Long":8.682127,"electricity_consumption_per_region":null,"CO2_emissions":null},{"index":21,"Pools":"Binance Pool","Locations":"Seattle, Washington, United States","Carbon_Emission_Factors":0.09674,"Lat":47.6062,"Long":-122.3321,"electricity_consumption_per_region":null,"CO2_emissions":null},{"index":22,"Pools":"Binance Pool","Locations":"San Jose, California, United States","Carbon_Emission_Factors":0.20553,"Lat":37.342205,"Long":-121.85199,"electricity_consumption_per_region":null,"CO2_emissions":null},{"index":23,"Pools":"Binance Pool","Locations":"Hangzhou, Zhejiang, China","Carbon_Emission_Factors":0.718581239,"Lat":30.251921,"Long":120.168068,"electricity_consumption_per_region":null,"CO2_emissions":null},{"index":24,"Pools":"1THash","Locations":"Hangzhou, Zhejiang, China","Carbon_Emission_Factors":0.718581239,"Lat":30.251921,"Long":120.168068,"electricity_consumption_per_region":4.5511844678,"CO2_emissions":3270.3957737777},{"index":25,"Pools":"BTC.TOP","Locations":"Hangzhou, Zhejiang, China","Carbon_Emission_Factors":0.718581239,"Lat":30.251921,"Long":120.168068,"electricity_consumption_per_region":3.4133883508,"CO2_emissions":2452.7968303333},{"index":26,"Pools":"Huobi.pool","Locations":"Frankfurt, Germany","Carbon_Emission_Factors":0.58883,"Lat":50.110924,"Long":8.682127,"electricity_consumption_per_region":1.109351214,"CO2_emissions":653.2192753528},{"index":27,"Pools":"Huobi.pool","Locations":"Palo Alto, California, United States","Carbon_Emission_Factors":0.20553,"Lat":37.4419,"Long":-122.143,"electricity_consumption_per_region":1.109351214,"CO2_emissions":228.004955018},{"index":28,"Pools":"Huobi.pool","Locations":"Hangzhou, Zhejiang, China","Carbon_Emission_Factors":0.718581239,"Lat":30.251921,"Long":120.168068,"electricity_consumption_per_region":1.109351214,"CO2_emissions":797.1589698583},{"index":29,"Pools":"Huobi.pool","Locations":"Beijing, China","Carbon_Emission_Factors":0.982118481,"Lat":39.907501,"Long":116.397232,"electricity_consumption_per_region":1.109351214,"CO2_emissions":1089.5143292111},{"index":30,"Pools":"SlushPool","Locations":"Frankfurt, Germany","Carbon_Emission_Factors":0.58883,"Lat":50.110924,"Long":8.682127,"electricity_consumption_per_region":0.3185829127,"CO2_emissions":187.5911765116},{"index":31,"Pools":"SlushPool","Locations":"Ashburn, Virginia, United States","Carbon_Emission_Factors":0.2925,"Lat":39.039474,"Long":-77.491806,"electricity_consumption_per_region":0.3185829127,"CO2_emissions":93.1855019779},{"index":32,"Pools":"SlushPool","Locations":"New Jersey, United States","Carbon_Emission_Factors":0.2233,"Lat":40.0583,"Long":-74.4057,"electricity_consumption_per_region":0.3185829127,"CO2_emissions":71.1395644159},{"index":33,"Pools":"SlushPool","Locations":"New York, New York, United States","Carbon_Emission_Factors":0.18901,"Lat":40.7128,"Long":-74.006,"electricity_consumption_per_region":0.3185829127,"CO2_emissions":60.2153563379},{"index":34,"Pools":"SlushPool","Locations":"Beijing, China","Carbon_Emission_Factors":0.982118481,"Lat":39.907501,"Long":116.397232,"electricity_consumption_per_region":0.3185829127,"CO2_emissions":312.8861663376},{"index":35,"Pools":"SlushPool","Locations":"Amsterdam, Netherlands","Carbon_Emission_Factors":0.45172,"Lat":52.378502,"Long":4.89998,"electricity_consumption_per_region":0.3185829127,"CO2_emissions":143.9102733451},{"index":36,"Pools":"SlushPool","Locations":"Toronto, Ontario, Canada","Carbon_Emission_Factors":0.03,"Lat":43.65345,"Long":-79.384018,"electricity_consumption_per_region":0.3185829127,"CO2_emissions":9.5574873823},{"index":37,"Pools":"SlushPool","Locations":"Singapore","Carbon_Emission_Factors":0.408,"Lat":1.28967,"Long":103.850067,"electricity_consumption_per_region":0.3185829127,"CO2_emissions":129.9818283999},{"index":38,"Pools":"SlushPool","Locations":"Tokyo, Japan","Carbon_Emission_Factors":0.4658,"Lat":35.689507,"Long":139.691696,"electricity_consumption_per_region":0.3185829127,"CO2_emissions":148.3959207566},{"index":39,"Pools":"SlushPool","Locations":"Moscow, Russia","Carbon_Emission_Factors":0.3102,"Lat":55.75222,"Long":37.615559,"electricity_consumption_per_region":0.3185829127,"CO2_emissions":98.8244195335},{"index":40,"Pools":"OKExPool","Locations":"Hangzhou, Zhejiang, China","Carbon_Emission_Factors":0.718581239,"Lat":30.251921,"Long":120.168068,"electricity_consumption_per_region":1.7066941754,"CO2_emissions":1226.3984151666},{"index":41,"Pools":"OKExPool","Locations":"Hong Kong","Carbon_Emission_Factors":0.65,"Lat":22.285521,"Long":114.157692,"electricity_consumption_per_region":1.7066941754,"CO2_emissions":1109.3512140223},{"index":42,"Pools":"OKKONG","Locations":"Hangzhou, Zhejiang, China","Carbon_Emission_Factors":0.718581239,"Lat":30.251921,"Long":120.168068,"electricity_consumption_per_region":null,"CO2_emissions":null},{"index":43,"Pools":"WAYI.CN","Locations":"Hangzhou, Zhejiang, China","Carbon_Emission_Factors":0.718581239,"Lat":30.251921,"Long":120.168068,"electricity_consumption_per_region":0.3413388351,"CO2_emissions":245.2796830333},{"index":44,"Pools":"SpiderPool","Locations":"Hangzhou, Zhejiang, China","Carbon_Emission_Factors":0.718581239,"Lat":30.251921,"Long":120.168068,"electricity_consumption_per_region":0.4551184468,"CO2_emissions":327.0395773778},{"index":45,"Pools":"Sigmapool.com","Locations":"Moscow, Russia","Carbon_Emission_Factors":0.3102,"Lat":55.75222,"Long":37.615559,"electricity_consumption_per_region":null,"CO2_emissions":null},{"index":46,"Pools":"Sigmapool.com","Locations":"Saint Petersburg, Russia","Carbon_Emission_Factors":0.3102,"Lat":59.89444,"Long":30.26417,"electricity_consumption_per_region":null,"CO2_emissions":null},{"index":47,"Pools":"Region Unknown","Locations":null,"Carbon_Emission_Factors":null,"Lat":null,"Long":null,"electricity_consumption_per_region":5.3476417496,"CO2_emissions":null},{"index":48,"Pools":"Pool Unknown","Locations":null,"Carbon_Emission_Factors":null,"Lat":null,"Long":null,"electricity_consumption_per_region":3.2996087391,"CO2_emissions":null},{"index":"Total","Pools":null,"Locations":null,"Carbon_Emission_Factors":null,"Lat":null,"Long":null,"electricity_consumption_per_region":84.6520311008,"CO2_emissions":39083.7525750847}]}