{"schema":{"fields":[{"name":"index","type":"integer"},{"name":"Pools","type":"string"},{"name":"Locations","type":"string"},{"name":"Carbon_Emission_Factors","type":"number"},{"name":"Lat","type":"number"},{"name":"Long","type":"number"},{"name":"electricity_consumption_per_region","type":"number"},{"name":"CO2_emissions","type":"number"}],"primaryKey":["index"],"pandas_version":"1.4.0"},"data":[{"index":0,"Pools":"F2Pool","Locations":"Frankfurt, Germany","Carbon_Emission_Factors":0.58883,"Lat":50.110924,"Long":8.682127,"electricity_consumption_per_region":4692470.8384318193,"CO2_emissions":2763067.6037938078},{"index":1,"Pools":"F2Pool","Locations":"Ashburn, Virginia, United States","Carbon_Emission_Factors":0.2925,"Lat":39.039474,"Long":-77.491806,"electricity_consumption_per_region":4692470.8384318193,"CO2_emissions":1372547.720241307},{"index":2,"Pools":"F2Pool","Locations":"San Mateo, California, United States","Carbon_Emission_Factors":0.20553,"Lat":37.54715,"Long":-122.3144,"electricity_consumption_per_region":4692470.8384318193,"CO2_emissions":964443.5314228918},{"index":3,"Pools":"F2Pool","Locations":"Hangzhou, Zhejiang, China","Carbon_Emission_Factors":0.718581239,"Lat":30.251921,"Long":120.168068,"electricity_consumption_per_region":4692470.8384318193,"CO2_emissions":3371921.5090517057},{"index":4,"Pools":"Poolin","Locations":"Frankfurt, Germany","Carbon_Emission_Factors":0.58883,"Lat":50.110924,"Long":8.682127,"electricity_consumption_per_region":4681830.3149886644,"CO2_emissions":2756802.1443747752},{"index":5,"Pools":"Poolin","Locations":"Ashburn, Virginia, United States","Carbon_Emission_Factors":0.2925,"Lat":39.039474,"Long":-77.491806,"electricity_consumption_per_region":4681830.3149886644,"CO2_emissions":1369435.3671341843},{"index":6,"Pools":"Poolin","Locations":"Hangzhou, Zhejiang, China","Carbon_Emission_Factors":0.718581239,"Lat":30.251921,"Long":120.168068,"electricity_consumption_per_region":4681830.3149886644,"CO2_emissions":3364275.428532315},{"index":7,"Pools":"AntPool","Locations":"Ashburn, Virginia, United States","Carbon_Emission_Factors":0.2925,"Lat":39.039474,"Long":-77.491806,"electricity_consumption_per_region":1404549.0944965992,"CO2_emissions":410830.6101402552},{"index":8,"Pools":"AntPool","Locations":"Portland, Oregon, United States","Carbon_Emission_Factors":0.15495,"Lat":45.516022,"Long":-122.681427,"electricity_consumption_per_region":1404549.0944965992,"CO2_emissions":217634.882192248},{"index":9,"Pools":"AntPool","Locations":"Hangzhou, Zhejiang, China","Carbon_Emission_Factors":0.718581239,"Lat":30.251921,"Long":120.168068,"electricity_consumption_per_region":1404549.0944965992,"CO2_emissions":1009282.6285596944},{"index":10,"Pools":"AntPool","Locations":"London, England, United Kingdom","Carbon_Emission_Factors":0.316,"Lat":51.500149,"Long":-0.12624,"electricity_consumption_per_region":1404549.0944965992,"CO2_emissions":443837.5138609253},{"index":11,"Pools":"AntPool","Locations":"Sydney, Australia","Carbon_Emission_Factors":0.79,"Lat":-33.8688,"Long":151.2093,"electricity_consumption_per_region":1404549.0944965992,"CO2_emissions":1109593.7846523135},{"index":12,"Pools":"ViaBTC","Locations":"Frankfurt, Germany","Carbon_Emission_Factors":0.58883,"Lat":50.110924,"Long":8.682127,"electricity_consumption_per_region":1830170.0322228407,"CO2_emissions":1077659.0200737752},{"index":13,"Pools":"ViaBTC","Locations":"Ashburn, Virginia, United States","Carbon_Emission_Factors":0.2925,"Lat":39.039474,"Long":-77.491806,"electricity_consumption_per_region":1830170.0322228407,"CO2_emissions":535324.7344251808},{"index":14,"Pools":"ViaBTC","Locations":"Hangzhou, Zhejiang, China","Carbon_Emission_Factors":0.718581239,"Lat":30.251921,"Long":120.168068,"electricity_consumption_per_region":1830170.0322228407,"CO2_emissions":1315125.8493353589},{"index":15,"Pools":"BTC.com","Locations":"Frankfurt, Germany","Carbon_Emission_Factors":0.58883,"Lat":50.110924,"Long":8.682127,"electricity_consumption_per_region":2094055.0136131111,"CO2_emissions":1233042.413665808},{"index":16,"Pools":"BTC.com","Locations":"Ashburn, Virginia, United States","Carbon_Emission_Factors":0.2925,"Lat":39.039474,"Long":-77.491806,"electricity_consumption_per_region":2094055.0136131111,"CO2_emissions":612511.091481835},{"index":17,"Pools":"BTC.com","Locations":"Seattle, Washington, United States","Carbon_Emission_Factors":0.09674,"Lat":47.6062,"Long":-122.3321,"electricity_consumption_per_region":2094055.0136131111,"CO2_emissions":202578.8820169324},{"index":18,"Pools":"BTC.com","Locations":"New Jersey, United States","Carbon_Emission_Factors":0.2233,"Lat":40.0583,"Long":-74.4057,"electricity_consumption_per_region":2094055.0136131111,"CO2_emissions":467602.4845398077},{"index":19,"Pools":"BTC.com","Locations":"Hangzhou, Zhejiang, China","Carbon_Emission_Factors":0.718581239,"Lat":30.251921,"Long":120.168068,"electricity_consumption_per_region":2094055.0136131111,"CO2_emissions":1504748.6462162712},{"index":20,"Pools":"Binance Pool","Locations":"Frankfurt, Germany","Carbon_Emission_Factors":0.58883,"Lat":50.110924,"Long":8.682127,"electricity_consumption_per_region":null,"CO2_emissions":null},{"index":21,"Pools":"Binance Pool","Locations":"Seattle, Washington, United States","Carbon_Emission_Factors":0.09674,"Lat":47.6062,"Long":-122.3321,"electricity_consumption_per_region":null,"CO2_emissions":null},{"index":22,"Pools":"Binance Pool","Locations":"San Jose, California, United States","Carbon_Emission_Factors":0.20553,"Lat":37.342205,"Long":-121.85199,"electricity_consumption_per_region":null,"CO2_emissions":null},{"index":23,"Pools":"Binance Pool","Locations":"Hangzhou, Zhejiang, China","Carbon_Emission_Factors":0.718581239,"Lat":30.251921,"Long":120.168068,"electricity_consumption_per_region":null,"CO2_emissions":null},{"index":24,"Pools":"1THash","Locations":"Hangzhou, Zhejiang, China","Carbon_Emission_Factors":0.718581239,"Lat":30.251921,"Long":120.168068,"electricity_consumption_per_region":5107451.252714905,"CO2_emissions":3670118.6493079788},{"index":25,"Pools":"BTC.TOP","Locations":"Hangzhou, Zhejiang, China","Carbon_Emission_Factors":0.718581239,"Lat":30.251921,"Long":120.168068,"electricity_consumption_per_region":2809098.1889931983,"CO2_emissions":2018565.2571193888},{"index":26,"Pools":"Huobi.pool","Locations":"Frankfurt, Germany","Carbon_Emission_Factors":0.58883,"Lat":50.110924,"Long":8.682127,"electricity_consumption_per_region":1149176.531860854,"CO2_emissions":676669.6172556266},{"index":27,"Pools":"Huobi.pool","Locations":"Palo Alto, California, United States","Carbon_Emission_Factors":0.20553,"Lat":37.4419,"Long":-122.143,"electricity_consumption_per_region":1149176.531860854,"CO2_emissions":236190.2525933613},{"index":28,"Pools":"Huobi.pool","Locations":"Hangzhou, Zhejiang, China","Carbon_Emission_Factors":0.718581239,"Lat":30.251921,"Long":120.168068,"electricity_consumption_per_region":1149176.531860854,"CO2_emissions":825776.6960942955},{"index":29,"Pools":"Huobi.pool","Locations":"Beijing, China","Carbon_Emission_Factors":0.982118481,"Lat":39.907501,"Long":116.397232,"electricity_consumption_per_region":1149176.531860854,"CO2_emissions":1128627.50987203},{"index":30,"Pools":"SlushPool","Locations":"Frankfurt, Germany","Carbon_Emission_Factors":0.58883,"Lat":50.110924,"Long":8.682127,"electricity_consumption_per_region":357521.5876900434,"CO2_emissions":210519.4364795282},{"index":31,"Pools":"SlushPool","Locations":"Ashburn, Virginia, United States","Carbon_Emission_Factors":0.2925,"Lat":39.039474,"Long":-77.491806,"electricity_consumption_per_region":357521.5876900434,"CO2_emissions":104575.0643993377},{"index":32,"Pools":"SlushPool","Locations":"New Jersey, United States","Carbon_Emission_Factors":0.2233,"Lat":40.0583,"Long":-74.4057,"electricity_consumption_per_region":357521.5876900434,"CO2_emissions":79834.5705311867},{"index":33,"Pools":"SlushPool","Locations":"New York, New York, United States","Carbon_Emission_Factors":0.18901,"Lat":40.7128,"Long":-74.006,"electricity_consumption_per_region":357521.5876900434,"CO2_emissions":67575.1552892951},{"index":34,"Pools":"SlushPool","Locations":"Beijing, China","Carbon_Emission_Factors":0.982118481,"Lat":39.907501,"Long":116.397232,"electricity_consumption_per_region":357521.5876900434,"CO2_emissions":351128.5586268537},{"index":35,"Pools":"SlushPool","Locations":"Amsterdam, Netherlands","Carbon_Emission_Factors":0.45172,"Lat":52.378502,"Long":4.89998,"electricity_consumption_per_region":357521.5876900434,"CO2_emissions":161499.6515913464},{"index":36,"Pools":"SlushPool","Locations":"Toronto, Ontario, Canada","Carbon_Emission_Factors":0.03,"Lat":43.65345,"Long":-79.384018,"electricity_consumption_per_region":357521.5876900434,"CO2_emissions":10725.6476307013},{"index":37,"Pools":"SlushPool","Locations":"Singapore","Carbon_Emission_Factors":0.408,"Lat":1.28967,"Long":103.850067,"electricity_consumption_per_region":357521.5876900434,"CO2_emissions":145868.8077775377},{"index":38,"Pools":"SlushPool","Locations":"Tokyo, Japan","Carbon_Emission_Factors":0.4658,"Lat":35.689507,"Long":139.691696,"electricity_consumption_per_region":357521.5876900434,"CO2_emissions":166533.5555460222},{"index":39,"Pools":"SlushPool","Locations":"Moscow, Russia","Carbon_Emission_Factors":0.3102,"Lat":55.75222,"Long":37.615559,"electricity_consumption_per_region":357521.5876900434,"CO2_emissions":110903.1965014514},{"index":40,"Pools":"OKExPool","Locations":"Hangzhou, Zhejiang, China","Carbon_Emission_Factors":0.718581239,"Lat":30.251921,"Long":120.168068,"electricity_consumption_per_region":3064470.7516289428,"CO2_emissions":2202071.189584787},{"index":41,"Pools":"OKExPool","Locations":"Hong Kong","Carbon_Emission_Factors":0.65,"Lat":22.285521,"Long":114.157692,"electricity_consumption_per_region":3064470.7516289428,"CO2_emissions":1991905.9885588128},{"index":42,"Pools":"OKKONG","Locations":"Hangzhou, Zhejiang, China","Carbon_Emission_Factors":0.718581239,"Lat":30.251921,"Long":120.168068,"electricity_consumption_per_region":null,"CO2_emissions":null},{"index":43,"Pools":"WAYI.CN","Locations":"Hangzhou, Zhejiang, China","Carbon_Emission_Factors":0.718581239,"Lat":30.251921,"Long":120.168068,"electricity_consumption_per_region":893803.9692251085,"CO2_emissions":642270.7636288963},{"index":44,"Pools":"SpiderPool","Locations":"Hangzhou, Zhejiang, China","Carbon_Emission_Factors":0.718581239,"Lat":30.251921,"Long":120.168068,"electricity_consumption_per_region":766117.6879072358,"CO2_emissions":550517.7973961969},{"index":45,"Pools":"Sigmapool.com","Locations":"Moscow, Russia","Carbon_Emission_Factors":0.3102,"Lat":55.75222,"Long":37.615559,"electricity_consumption_per_region":null,"CO2_emissions":null},{"index":46,"Pools":"Sigmapool.com","Locations":"Saint Petersburg, Russia","Carbon_Emission_Factors":0.3102,"Lat":59.89444,"Long":30.26417,"electricity_consumption_per_region":null,"CO2_emissions":null},{"index":47,"Pools":"Region Unknown","Locations":null,"Carbon_Emission_Factors":null,"Lat":null,"Long":null,"electricity_consumption_per_region":8299608.2856617216,"CO2_emissions":null},{"index":48,"Pools":"Pool Unknown","Locations":null,"Carbon_Emission_Factors":null,"Lat":null,"Long":null,"electricity_consumption_per_region":3958274.7208540514,"CO2_emissions":null}]}