{"schema":{"fields":[{"name":"index","type":"integer"},{"name":"Pools","type":"string"},{"name":"Locations","type":"string"},{"name":"Carbon_Emission_Factors","type":"number"},{"name":"Lat","type":"number"},{"name":"Long","type":"number"},{"name":"electricity_consumption_per_region","type":"number"},{"name":"CO2_emissions","type":"number"}],"primaryKey":["index"],"pandas_version":"1.4.0"},"data":[{"index":0,"Pools":"F2Pool","Locations":"Frankfurt, Germany","Carbon_Emission_Factors":0.58883,"Lat":50.110924,"Long":8.682127,"electricity_consumption_per_region":3555612.865456169,"CO2_emissions":2093651.5235665559},{"index":1,"Pools":"F2Pool","Locations":"Ashburn, Virginia, United States","Carbon_Emission_Factors":0.2925,"Lat":39.039474,"Long":-77.491806,"electricity_consumption_per_region":3555612.865456169,"CO2_emissions":1040016.7631459293},{"index":2,"Pools":"F2Pool","Locations":"San Mateo, California, United States","Carbon_Emission_Factors":0.20553,"Lat":37.54715,"Long":-122.3144,"electricity_consumption_per_region":3555612.865456169,"CO2_emissions":730785.1122372064},{"index":3,"Pools":"F2Pool","Locations":"Hangzhou, Zhejiang, China","Carbon_Emission_Factors":0.718581239,"Lat":30.251921,"Long":120.168068,"electricity_consumption_per_region":3555612.865456169,"CO2_emissions":2554996.6982638342},{"index":4,"Pools":"Poolin","Locations":"Frankfurt, Germany","Carbon_Emission_Factors":0.58883,"Lat":50.110924,"Long":8.682127,"electricity_consumption_per_region":4778743.6911730925,"CO2_emissions":2813867.6476734518},{"index":5,"Pools":"Poolin","Locations":"Ashburn, Virginia, United States","Carbon_Emission_Factors":0.2925,"Lat":39.039474,"Long":-77.491806,"electricity_consumption_per_region":4778743.6911730925,"CO2_emissions":1397782.5296681295},{"index":6,"Pools":"Poolin","Locations":"Hangzhou, Zhejiang, China","Carbon_Emission_Factors":0.718581239,"Lat":30.251921,"Long":120.168068,"electricity_consumption_per_region":4778743.6911730925,"CO2_emissions":3433915.5624665944},{"index":7,"Pools":"AntPool","Locations":"Ashburn, Virginia, United States","Carbon_Emission_Factors":0.2925,"Lat":39.039474,"Long":-77.491806,"electricity_consumption_per_region":1729450.0977578815,"CO2_emissions":505864.1535941803},{"index":8,"Pools":"AntPool","Locations":"Portland, Oregon, United States","Carbon_Emission_Factors":0.15495,"Lat":45.516022,"Long":-122.681427,"electricity_consumption_per_region":1729450.0977578815,"CO2_emissions":267978.2926475838},{"index":9,"Pools":"AntPool","Locations":"Hangzhou, Zhejiang, China","Carbon_Emission_Factors":0.718581239,"Lat":30.251921,"Long":120.168068,"electricity_consumption_per_region":1729450.0977578815,"CO2_emissions":1242750.3940355296},{"index":10,"Pools":"AntPool","Locations":"London, England, United Kingdom","Carbon_Emission_Factors":0.316,"Lat":51.500149,"Long":-0.12624,"electricity_consumption_per_region":1729450.0977578815,"CO2_emissions":546506.2308914906},{"index":11,"Pools":"AntPool","Locations":"Sydney, Australia","Carbon_Emission_Factors":0.79,"Lat":-33.8688,"Long":151.2093,"electricity_consumption_per_region":1729450.0977578815,"CO2_emissions":1366265.5772287264},{"index":12,"Pools":"ViaBTC","Locations":"Frankfurt, Germany","Carbon_Emission_Factors":0.58883,"Lat":50.110924,"Long":8.682127,"electricity_consumption_per_region":2541077.9945126767,"CO2_emissions":1496262.9555088994},{"index":13,"Pools":"ViaBTC","Locations":"Ashburn, Virginia, United States","Carbon_Emission_Factors":0.2925,"Lat":39.039474,"Long":-77.491806,"electricity_consumption_per_region":2541077.9945126767,"CO2_emissions":743265.3133949579},{"index":14,"Pools":"ViaBTC","Locations":"Hangzhou, Zhejiang, China","Carbon_Emission_Factors":0.718581239,"Lat":30.251921,"Long":120.168068,"electricity_consumption_per_region":2541077.9945126767,"CO2_emissions":1825970.9736925545},{"index":15,"Pools":"BTC.com","Locations":"Frankfurt, Germany","Carbon_Emission_Factors":0.58883,"Lat":50.110924,"Long":8.682127,"electricity_consumption_per_region":2275592.2338919491,"CO2_emissions":1339936.9750825963},{"index":16,"Pools":"BTC.com","Locations":"Ashburn, Virginia, United States","Carbon_Emission_Factors":0.2925,"Lat":39.039474,"Long":-77.491806,"electricity_consumption_per_region":2275592.2338919491,"CO2_emissions":665610.728413395},{"index":17,"Pools":"BTC.com","Locations":"Seattle, Washington, United States","Carbon_Emission_Factors":0.09674,"Lat":47.6062,"Long":-122.3321,"electricity_consumption_per_region":2275592.2338919491,"CO2_emissions":220140.7927067072},{"index":18,"Pools":"BTC.com","Locations":"New Jersey, United States","Carbon_Emission_Factors":0.2233,"Lat":40.0583,"Long":-74.4057,"electricity_consumption_per_region":2275592.2338919491,"CO2_emissions":508139.7458280722},{"index":19,"Pools":"BTC.com","Locations":"Hangzhou, Zhejiang, China","Carbon_Emission_Factors":0.718581239,"Lat":30.251921,"Long":120.168068,"electricity_consumption_per_region":2275592.2338919491,"CO2_emissions":1635197.8868888547},{"index":20,"Pools":"Binance Pool","Locations":"Frankfurt, Germany","Carbon_Emission_Factors":0.58883,"Lat":50.110924,"Long":8.682127,"electricity_consumption_per_region":null,"CO2_emissions":null},{"index":21,"Pools":"Binance Pool","Locations":"Seattle, Washington, United States","Carbon_Emission_Factors":0.09674,"Lat":47.6062,"Long":-122.3321,"electricity_consumption_per_region":null,"CO2_emissions":null},{"index":22,"Pools":"Binance Pool","Locations":"San Jose, California, United States","Carbon_Emission_Factors":0.20553,"Lat":37.342205,"Long":-121.85199,"electricity_consumption_per_region":null,"CO2_emissions":null},{"index":23,"Pools":"Binance Pool","Locations":"Hangzhou, Zhejiang, China","Carbon_Emission_Factors":0.718581239,"Lat":30.251921,"Long":120.168068,"electricity_consumption_per_region":null,"CO2_emissions":null},{"index":24,"Pools":"1THash","Locations":"Hangzhou, Zhejiang, China","Carbon_Emission_Factors":0.718581239,"Lat":30.251921,"Long":120.168068,"electricity_consumption_per_region":4551184.4677838972,"CO2_emissions":3270395.7737777084},{"index":25,"Pools":"BTC.TOP","Locations":"Hangzhou, Zhejiang, China","Carbon_Emission_Factors":0.718581239,"Lat":30.251921,"Long":120.168068,"electricity_consumption_per_region":3413388.3508379241,"CO2_emissions":2452796.8303332822},{"index":26,"Pools":"Huobi.pool","Locations":"Frankfurt, Germany","Carbon_Emission_Factors":0.58883,"Lat":50.110924,"Long":8.682127,"electricity_consumption_per_region":1109351.2140223251,"CO2_emissions":653219.2753527657},{"index":27,"Pools":"Huobi.pool","Locations":"Palo Alto, California, United States","Carbon_Emission_Factors":0.20553,"Lat":37.4419,"Long":-122.143,"electricity_consumption_per_region":1109351.2140223251,"CO2_emissions":228004.9550180085},{"index":28,"Pools":"Huobi.pool","Locations":"Hangzhou, Zhejiang, China","Carbon_Emission_Factors":0.718581239,"Lat":30.251921,"Long":120.168068,"electricity_consumption_per_region":1109351.2140223251,"CO2_emissions":797158.9698583166},{"index":29,"Pools":"Huobi.pool","Locations":"Beijing, China","Carbon_Emission_Factors":0.982118481,"Lat":39.907501,"Long":116.397232,"electricity_consumption_per_region":1109351.2140223251,"CO2_emissions":1089514.3292111119},{"index":30,"Pools":"SlushPool","Locations":"Frankfurt, Germany","Carbon_Emission_Factors":0.58883,"Lat":50.110924,"Long":8.682127,"electricity_consumption_per_region":318582.9127448729,"CO2_emissions":187591.1765115635},{"index":31,"Pools":"SlushPool","Locations":"Ashburn, Virginia, United States","Carbon_Emission_Factors":0.2925,"Lat":39.039474,"Long":-77.491806,"electricity_consumption_per_region":318582.9127448729,"CO2_emissions":93185.5019778753},{"index":32,"Pools":"SlushPool","Locations":"New Jersey, United States","Carbon_Emission_Factors":0.2233,"Lat":40.0583,"Long":-74.4057,"electricity_consumption_per_region":318582.9127448729,"CO2_emissions":71139.5644159301},{"index":33,"Pools":"SlushPool","Locations":"New York, New York, United States","Carbon_Emission_Factors":0.18901,"Lat":40.7128,"Long":-74.006,"electricity_consumption_per_region":318582.9127448729,"CO2_emissions":60215.3563379084},{"index":34,"Pools":"SlushPool","Locations":"Beijing, China","Carbon_Emission_Factors":0.982118481,"Lat":39.907501,"Long":116.397232,"electricity_consumption_per_region":318582.9127448729,"CO2_emissions":312886.16633755},{"index":35,"Pools":"SlushPool","Locations":"Amsterdam, Netherlands","Carbon_Emission_Factors":0.45172,"Lat":52.378502,"Long":4.89998,"electricity_consumption_per_region":318582.9127448729,"CO2_emissions":143910.273345114},{"index":36,"Pools":"SlushPool","Locations":"Toronto, Ontario, Canada","Carbon_Emission_Factors":0.03,"Lat":43.65345,"Long":-79.384018,"electricity_consumption_per_region":318582.9127448729,"CO2_emissions":9557.4873823462},{"index":37,"Pools":"SlushPool","Locations":"Singapore","Carbon_Emission_Factors":0.408,"Lat":1.28967,"Long":103.850067,"electricity_consumption_per_region":318582.9127448729,"CO2_emissions":129981.8283999081},{"index":38,"Pools":"SlushPool","Locations":"Tokyo, Japan","Carbon_Emission_Factors":0.4658,"Lat":35.689507,"Long":139.691696,"electricity_consumption_per_region":318582.9127448729,"CO2_emissions":148395.9207565618},{"index":39,"Pools":"SlushPool","Locations":"Moscow, Russia","Carbon_Emission_Factors":0.3102,"Lat":55.75222,"Long":37.615559,"electricity_consumption_per_region":318582.9127448729,"CO2_emissions":98824.4195334596},{"index":40,"Pools":"OKExPool","Locations":"Hangzhou, Zhejiang, China","Carbon_Emission_Factors":0.718581239,"Lat":30.251921,"Long":120.168068,"electricity_consumption_per_region":1706694.1754189618,"CO2_emissions":1226398.4151666409},{"index":41,"Pools":"OKExPool","Locations":"Hong Kong","Carbon_Emission_Factors":0.65,"Lat":22.285521,"Long":114.157692,"electricity_consumption_per_region":1706694.1754189618,"CO2_emissions":1109351.2140223251},{"index":42,"Pools":"OKKONG","Locations":"Hangzhou, Zhejiang, China","Carbon_Emission_Factors":0.718581239,"Lat":30.251921,"Long":120.168068,"electricity_consumption_per_region":null,"CO2_emissions":null},{"index":43,"Pools":"WAYI.CN","Locations":"Hangzhou, Zhejiang, China","Carbon_Emission_Factors":0.718581239,"Lat":30.251921,"Long":120.168068,"electricity_consumption_per_region":341338.8350837923,"CO2_emissions":245279.6830333282},{"index":44,"Pools":"SpiderPool","Locations":"Hangzhou, Zhejiang, China","Carbon_Emission_Factors":0.718581239,"Lat":30.251921,"Long":120.168068,"electricity_consumption_per_region":455118.4467783898,"CO2_emissions":327039.5773777709},{"index":45,"Pools":"Sigmapool.com","Locations":"Moscow, Russia","Carbon_Emission_Factors":0.3102,"Lat":55.75222,"Long":37.615559,"electricity_consumption_per_region":null,"CO2_emissions":null},{"index":46,"Pools":"Sigmapool.com","Locations":"Saint Petersburg, Russia","Carbon_Emission_Factors":0.3102,"Lat":59.89444,"Long":30.26417,"electricity_consumption_per_region":null,"CO2_emissions":null},{"index":47,"Pools":"Region Unknown","Locations":null,"Carbon_Emission_Factors":null,"Lat":null,"Long":null,"electricity_consumption_per_region":5347641.7496460807,"CO2_emissions":null},{"index":48,"Pools":"Pool Unknown","Locations":null,"Carbon_Emission_Factors":null,"Lat":null,"Long":null,"electricity_consumption_per_region":3299608.7391433264,"CO2_emissions":null}]}