{"schema":{"fields":[{"name":"index","type":"integer"},{"name":"Pools","type":"string"},{"name":"Locations","type":"string"},{"name":"Carbon_Emission_Factors","type":"number"},{"name":"Lat","type":"number"},{"name":"Long","type":"number"},{"name":"electricity_consumption_per_region","type":"number"},{"name":"CO2_emissions","type":"number"}],"primaryKey":["index"],"pandas_version":"1.4.0"},"data":[{"index":0,"Pools":"F2Pool","Locations":"Frankfurt, Germany","Carbon_Emission_Factors":0.58883,"Lat":50.110924,"Long":8.682127,"electricity_consumption_per_region":3697867.1285582609,"CO2_emissions":2177415.1013089605},{"index":1,"Pools":"F2Pool","Locations":"Ashburn, Virginia, United States","Carbon_Emission_Factors":0.2925,"Lat":39.039474,"Long":-77.491806,"electricity_consumption_per_region":3697867.1285582609,"CO2_emissions":1081626.1351032911},{"index":2,"Pools":"F2Pool","Locations":"San Mateo, California, United States","Carbon_Emission_Factors":0.20553,"Lat":37.54715,"Long":-122.3144,"electricity_consumption_per_region":3697867.1285582609,"CO2_emissions":760022.6309325793},{"index":3,"Pools":"F2Pool","Locations":"Hangzhou, Zhejiang, China","Carbon_Emission_Factors":0.718581239,"Lat":30.251921,"Long":120.168068,"electricity_consumption_per_region":3697867.1285582609,"CO2_emissions":2657217.9428967675},{"index":4,"Pools":"Poolin","Locations":"Frankfurt, Germany","Carbon_Emission_Factors":0.58883,"Lat":50.110924,"Long":8.682127,"electricity_consumption_per_region":4506775.56293038,"CO2_emissions":2653724.6547202957},{"index":5,"Pools":"Poolin","Locations":"Ashburn, Virginia, United States","Carbon_Emission_Factors":0.2925,"Lat":39.039474,"Long":-77.491806,"electricity_consumption_per_region":4506775.56293038,"CO2_emissions":1318231.852157136},{"index":6,"Pools":"Poolin","Locations":"Hangzhou, Zhejiang, China","Carbon_Emission_Factors":0.718581239,"Lat":30.251921,"Long":120.168068,"electricity_consumption_per_region":4506775.56293038,"CO2_emissions":3238484.3679054352},{"index":7,"Pools":"AntPool","Locations":"Ashburn, Virginia, United States","Carbon_Emission_Factors":0.2925,"Lat":39.039474,"Long":-77.491806,"electricity_consumption_per_region":1617816.868744239,"CO2_emissions":473211.4341076899},{"index":8,"Pools":"AntPool","Locations":"Portland, Oregon, United States","Carbon_Emission_Factors":0.15495,"Lat":45.516022,"Long":-122.681427,"electricity_consumption_per_region":1617816.868744239,"CO2_emissions":250680.7238119198},{"index":9,"Pools":"AntPool","Locations":"Hangzhou, Zhejiang, China","Carbon_Emission_Factors":0.718581239,"Lat":30.251921,"Long":120.168068,"electricity_consumption_per_region":1617816.868744239,"CO2_emissions":1162532.8500173357},{"index":10,"Pools":"AntPool","Locations":"London, England, United Kingdom","Carbon_Emission_Factors":0.316,"Lat":51.500149,"Long":-0.12624,"electricity_consumption_per_region":1617816.868744239,"CO2_emissions":511230.1305231795},{"index":11,"Pools":"AntPool","Locations":"Sydney, Australia","Carbon_Emission_Factors":0.79,"Lat":-33.8688,"Long":151.2093,"electricity_consumption_per_region":1617816.868744239,"CO2_emissions":1278075.3263079489},{"index":12,"Pools":"ViaBTC","Locations":"Frankfurt, Germany","Carbon_Emission_Factors":0.58883,"Lat":50.110924,"Long":8.682127,"electricity_consumption_per_region":2118569.7090698369,"CO2_emissions":1247477.4017915919},{"index":13,"Pools":"ViaBTC","Locations":"Ashburn, Virginia, United States","Carbon_Emission_Factors":0.2925,"Lat":39.039474,"Long":-77.491806,"electricity_consumption_per_region":2118569.7090698369,"CO2_emissions":619681.6399029272},{"index":14,"Pools":"ViaBTC","Locations":"Hangzhou, Zhejiang, China","Carbon_Emission_Factors":0.718581239,"Lat":30.251921,"Long":120.168068,"electricity_consumption_per_region":2118569.7090698369,"CO2_emissions":1522364.446451273},{"index":15,"Pools":"BTC.com","Locations":"Frankfurt, Germany","Carbon_Emission_Factors":0.58883,"Lat":50.110924,"Long":8.682127,"electricity_consumption_per_region":2010715.2511535543,"CO2_emissions":1183969.4613367473},{"index":16,"Pools":"BTC.com","Locations":"Ashburn, Virginia, United States","Carbon_Emission_Factors":0.2925,"Lat":39.039474,"Long":-77.491806,"electricity_consumption_per_region":2010715.2511535543,"CO2_emissions":588134.2109624146},{"index":17,"Pools":"BTC.com","Locations":"Seattle, Washington, United States","Carbon_Emission_Factors":0.09674,"Lat":47.6062,"Long":-122.3321,"electricity_consumption_per_region":2010715.2511535543,"CO2_emissions":194516.5933965949},{"index":18,"Pools":"BTC.com","Locations":"New Jersey, United States","Carbon_Emission_Factors":0.2233,"Lat":40.0583,"Long":-74.4057,"electricity_consumption_per_region":2010715.2511535543,"CO2_emissions":448992.7155825887},{"index":19,"Pools":"BTC.com","Locations":"Hangzhou, Zhejiang, China","Carbon_Emission_Factors":0.718581239,"Lat":30.251921,"Long":120.168068,"electricity_consumption_per_region":2010715.2511535543,"CO2_emissions":1444862.2564501173},{"index":20,"Pools":"Binance Pool","Locations":"Frankfurt, Germany","Carbon_Emission_Factors":0.58883,"Lat":50.110924,"Long":8.682127,"electricity_consumption_per_region":null,"CO2_emissions":null},{"index":21,"Pools":"Binance Pool","Locations":"Seattle, Washington, United States","Carbon_Emission_Factors":0.09674,"Lat":47.6062,"Long":-122.3321,"electricity_consumption_per_region":null,"CO2_emissions":null},{"index":22,"Pools":"Binance Pool","Locations":"San Jose, California, United States","Carbon_Emission_Factors":0.20553,"Lat":37.342205,"Long":-121.85199,"electricity_consumption_per_region":null,"CO2_emissions":null},{"index":23,"Pools":"Binance Pool","Locations":"Hangzhou, Zhejiang, China","Carbon_Emission_Factors":0.718581239,"Lat":30.251921,"Long":120.168068,"electricity_consumption_per_region":null,"CO2_emissions":null},{"index":24,"Pools":"1THash","Locations":"Hangzhou, Zhejiang, China","Carbon_Emission_Factors":0.718581239,"Lat":30.251921,"Long":120.168068,"electricity_consumption_per_region":4391217.2151629347,"CO2_emissions":3155446.3071899116},{"index":25,"Pools":"BTC.TOP","Locations":"Hangzhou, Zhejiang, China","Carbon_Emission_Factors":0.718581239,"Lat":30.251921,"Long":120.168068,"electricity_consumption_per_region":2657841.9986512493,"CO2_emissions":1909875.3964570512},{"index":26,"Pools":"Huobi.pool","Locations":"Frankfurt, Germany","Carbon_Emission_Factors":0.58883,"Lat":50.110924,"Long":8.682127,"electricity_consumption_per_region":982245.9560232878,"CO2_emissions":578375.8862851926},{"index":27,"Pools":"Huobi.pool","Locations":"Palo Alto, California, United States","Carbon_Emission_Factors":0.20553,"Lat":37.4419,"Long":-122.143,"electricity_consumption_per_region":982245.9560232878,"CO2_emissions":201881.0113414663},{"index":28,"Pools":"Huobi.pool","Locations":"Hangzhou, Zhejiang, China","Carbon_Emission_Factors":0.718581239,"Lat":30.251921,"Long":120.168068,"electricity_consumption_per_region":982245.9560232878,"CO2_emissions":705823.5160819538},{"index":29,"Pools":"Huobi.pool","Locations":"Beijing, China","Carbon_Emission_Factors":0.982118481,"Lat":39.907501,"Long":116.397232,"electricity_consumption_per_region":982245.9560232878,"CO2_emissions":964681.9062979843},{"index":30,"Pools":"SlushPool","Locations":"Frankfurt, Germany","Carbon_Emission_Factors":0.58883,"Lat":50.110924,"Long":8.682127,"electricity_consumption_per_region":381342.5476325706,"CO2_emissions":224545.9323224865},{"index":31,"Pools":"SlushPool","Locations":"Ashburn, Virginia, United States","Carbon_Emission_Factors":0.2925,"Lat":39.039474,"Long":-77.491806,"electricity_consumption_per_region":381342.5476325706,"CO2_emissions":111542.6951825269},{"index":32,"Pools":"SlushPool","Locations":"New Jersey, United States","Carbon_Emission_Factors":0.2233,"Lat":40.0583,"Long":-74.4057,"electricity_consumption_per_region":381342.5476325706,"CO2_emissions":85153.790886353},{"index":33,"Pools":"SlushPool","Locations":"New York, New York, United States","Carbon_Emission_Factors":0.18901,"Lat":40.7128,"Long":-74.006,"electricity_consumption_per_region":381342.5476325706,"CO2_emissions":72077.5549280322},{"index":34,"Pools":"SlushPool","Locations":"Beijing, China","Carbon_Emission_Factors":0.982118481,"Lat":39.907501,"Long":116.397232,"electricity_consumption_per_region":381342.5476325706,"CO2_emissions":374523.5636215704},{"index":35,"Pools":"SlushPool","Locations":"Amsterdam, Netherlands","Carbon_Emission_Factors":0.45172,"Lat":52.378502,"Long":4.89998,"electricity_consumption_per_region":381342.5476325706,"CO2_emissions":172260.0556165848},{"index":36,"Pools":"SlushPool","Locations":"Toronto, Ontario, Canada","Carbon_Emission_Factors":0.03,"Lat":43.65345,"Long":-79.384018,"electricity_consumption_per_region":381342.5476325706,"CO2_emissions":11440.2764289771},{"index":37,"Pools":"SlushPool","Locations":"Singapore","Carbon_Emission_Factors":0.408,"Lat":1.28967,"Long":103.850067,"electricity_consumption_per_region":381342.5476325706,"CO2_emissions":155587.7594340888},{"index":38,"Pools":"SlushPool","Locations":"Tokyo, Japan","Carbon_Emission_Factors":0.4658,"Lat":35.689507,"Long":139.691696,"electricity_consumption_per_region":381342.5476325706,"CO2_emissions":177629.3586872514},{"index":39,"Pools":"SlushPool","Locations":"Moscow, Russia","Carbon_Emission_Factors":0.3102,"Lat":55.75222,"Long":37.615559,"electricity_consumption_per_region":381342.5476325706,"CO2_emissions":118292.4582756234},{"index":40,"Pools":"OKExPool","Locations":"Hangzhou, Zhejiang, China","Carbon_Emission_Factors":0.718581239,"Lat":30.251921,"Long":120.168068,"electricity_consumption_per_region":1675596.0426279621,"CO2_emissions":1204051.880375098},{"index":41,"Pools":"OKExPool","Locations":"Hong Kong","Carbon_Emission_Factors":0.65,"Lat":22.285521,"Long":114.157692,"electricity_consumption_per_region":1675596.0426279621,"CO2_emissions":1089137.4277081755},{"index":42,"Pools":"OKKONG","Locations":"Hangzhou, Zhejiang, China","Carbon_Emission_Factors":0.718581239,"Lat":30.251921,"Long":120.168068,"electricity_consumption_per_region":null,"CO2_emissions":null},{"index":43,"Pools":"WAYI.CN","Locations":"Hangzhou, Zhejiang, China","Carbon_Emission_Factors":0.718581239,"Lat":30.251921,"Long":120.168068,"electricity_consumption_per_region":462233.3910697826,"CO2_emissions":332152.2428620959},{"index":44,"Pools":"SpiderPool","Locations":"Hangzhou, Zhejiang, China","Carbon_Emission_Factors":0.718581239,"Lat":30.251921,"Long":120.168068,"electricity_consumption_per_region":346675.0433023369,"CO2_emissions":249114.182146572},{"index":45,"Pools":"Sigmapool.com","Locations":"Moscow, Russia","Carbon_Emission_Factors":0.3102,"Lat":55.75222,"Long":37.615559,"electricity_consumption_per_region":null,"CO2_emissions":null},{"index":46,"Pools":"Sigmapool.com","Locations":"Saint Petersburg, Russia","Carbon_Emission_Factors":0.3102,"Lat":59.89444,"Long":30.26417,"electricity_consumption_per_region":null,"CO2_emissions":null},{"index":47,"Pools":"Region Unknown","Locations":null,"Carbon_Emission_Factors":null,"Lat":null,"Long":null,"electricity_consumption_per_region":6124592.4316746192,"CO2_emissions":null},{"index":48,"Pools":"Pool Unknown","Locations":null,"Carbon_Emission_Factors":null,"Lat":null,"Long":null,"electricity_consumption_per_region":3004517.0419535865,"CO2_emissions":null}]}