{"schema":{"fields":[{"name":"index","type":"string"},{"name":"Pools","type":"string"},{"name":"Locations","type":"string"},{"name":"Carbon_Emission_Factors","type":"number"},{"name":"Lat","type":"number"},{"name":"Long","type":"number"},{"name":"electricity_consumption_per_region","type":"number"},{"name":"CO2_emissions","type":"number"}],"primaryKey":["index"],"pandas_version":"1.4.0"},"data":[{"index":0,"Pools":"F2Pool","Locations":"Frankfurt, Germany","Carbon_Emission_Factors":0.58883,"Lat":50.110924,"Long":8.682127,"electricity_consumption_per_region":3.6978671286,"CO2_emissions":2177.415101309},{"index":1,"Pools":"F2Pool","Locations":"Ashburn, Virginia, United States","Carbon_Emission_Factors":0.2925,"Lat":39.039474,"Long":-77.491806,"electricity_consumption_per_region":3.6978671286,"CO2_emissions":1081.6261351033},{"index":2,"Pools":"F2Pool","Locations":"San Mateo, California, United States","Carbon_Emission_Factors":0.20553,"Lat":37.54715,"Long":-122.3144,"electricity_consumption_per_region":3.6978671286,"CO2_emissions":760.0226309326},{"index":3,"Pools":"F2Pool","Locations":"Hangzhou, Zhejiang, China","Carbon_Emission_Factors":0.718581239,"Lat":30.251921,"Long":120.168068,"electricity_consumption_per_region":3.6978671286,"CO2_emissions":2657.2179428968},{"index":4,"Pools":"Poolin","Locations":"Frankfurt, Germany","Carbon_Emission_Factors":0.58883,"Lat":50.110924,"Long":8.682127,"electricity_consumption_per_region":4.5067755629,"CO2_emissions":2653.7246547203},{"index":5,"Pools":"Poolin","Locations":"Ashburn, Virginia, United States","Carbon_Emission_Factors":0.2925,"Lat":39.039474,"Long":-77.491806,"electricity_consumption_per_region":4.5067755629,"CO2_emissions":1318.2318521571},{"index":6,"Pools":"Poolin","Locations":"Hangzhou, Zhejiang, China","Carbon_Emission_Factors":0.718581239,"Lat":30.251921,"Long":120.168068,"electricity_consumption_per_region":4.5067755629,"CO2_emissions":3238.4843679054},{"index":7,"Pools":"AntPool","Locations":"Ashburn, Virginia, United States","Carbon_Emission_Factors":0.2925,"Lat":39.039474,"Long":-77.491806,"electricity_consumption_per_region":1.6178168687,"CO2_emissions":473.2114341077},{"index":8,"Pools":"AntPool","Locations":"Portland, Oregon, United States","Carbon_Emission_Factors":0.15495,"Lat":45.516022,"Long":-122.681427,"electricity_consumption_per_region":1.6178168687,"CO2_emissions":250.6807238119},{"index":9,"Pools":"AntPool","Locations":"Hangzhou, Zhejiang, China","Carbon_Emission_Factors":0.718581239,"Lat":30.251921,"Long":120.168068,"electricity_consumption_per_region":1.6178168687,"CO2_emissions":1162.5328500173},{"index":10,"Pools":"AntPool","Locations":"London, England, United Kingdom","Carbon_Emission_Factors":0.316,"Lat":51.500149,"Long":-0.12624,"electricity_consumption_per_region":1.6178168687,"CO2_emissions":511.2301305232},{"index":11,"Pools":"AntPool","Locations":"Sydney, Australia","Carbon_Emission_Factors":0.79,"Lat":-33.8688,"Long":151.2093,"electricity_consumption_per_region":1.6178168687,"CO2_emissions":1278.0753263079},{"index":12,"Pools":"ViaBTC","Locations":"Frankfurt, Germany","Carbon_Emission_Factors":0.58883,"Lat":50.110924,"Long":8.682127,"electricity_consumption_per_region":2.1185697091,"CO2_emissions":1247.4774017916},{"index":13,"Pools":"ViaBTC","Locations":"Ashburn, Virginia, United States","Carbon_Emission_Factors":0.2925,"Lat":39.039474,"Long":-77.491806,"electricity_consumption_per_region":2.1185697091,"CO2_emissions":619.6816399029},{"index":14,"Pools":"ViaBTC","Locations":"Hangzhou, Zhejiang, China","Carbon_Emission_Factors":0.718581239,"Lat":30.251921,"Long":120.168068,"electricity_consumption_per_region":2.1185697091,"CO2_emissions":1522.3644464513},{"index":15,"Pools":"BTC.com","Locations":"Frankfurt, Germany","Carbon_Emission_Factors":0.58883,"Lat":50.110924,"Long":8.682127,"electricity_consumption_per_region":2.0107152512,"CO2_emissions":1183.9694613367},{"index":16,"Pools":"BTC.com","Locations":"Ashburn, Virginia, United States","Carbon_Emission_Factors":0.2925,"Lat":39.039474,"Long":-77.491806,"electricity_consumption_per_region":2.0107152512,"CO2_emissions":588.1342109624},{"index":17,"Pools":"BTC.com","Locations":"Seattle, Washington, United States","Carbon_Emission_Factors":0.09674,"Lat":47.6062,"Long":-122.3321,"electricity_consumption_per_region":2.0107152512,"CO2_emissions":194.5165933966},{"index":18,"Pools":"BTC.com","Locations":"New Jersey, United States","Carbon_Emission_Factors":0.2233,"Lat":40.0583,"Long":-74.4057,"electricity_consumption_per_region":2.0107152512,"CO2_emissions":448.9927155826},{"index":19,"Pools":"BTC.com","Locations":"Hangzhou, Zhejiang, China","Carbon_Emission_Factors":0.718581239,"Lat":30.251921,"Long":120.168068,"electricity_consumption_per_region":2.0107152512,"CO2_emissions":1444.8622564501},{"index":20,"Pools":"Binance Pool","Locations":"Frankfurt, Germany","Carbon_Emission_Factors":0.58883,"Lat":50.110924,"Long":8.682127,"electricity_consumption_per_region":null,"CO2_emissions":null},{"index":21,"Pools":"Binance Pool","Locations":"Seattle, Washington, United States","Carbon_Emission_Factors":0.09674,"Lat":47.6062,"Long":-122.3321,"electricity_consumption_per_region":null,"CO2_emissions":null},{"index":22,"Pools":"Binance Pool","Locations":"San Jose, California, United States","Carbon_Emission_Factors":0.20553,"Lat":37.342205,"Long":-121.85199,"electricity_consumption_per_region":null,"CO2_emissions":null},{"index":23,"Pools":"Binance Pool","Locations":"Hangzhou, Zhejiang, China","Carbon_Emission_Factors":0.718581239,"Lat":30.251921,"Long":120.168068,"electricity_consumption_per_region":null,"CO2_emissions":null},{"index":24,"Pools":"1THash","Locations":"Hangzhou, Zhejiang, China","Carbon_Emission_Factors":0.718581239,"Lat":30.251921,"Long":120.168068,"electricity_consumption_per_region":4.3912172152,"CO2_emissions":3155.4463071899},{"index":25,"Pools":"BTC.TOP","Locations":"Hangzhou, Zhejiang, China","Carbon_Emission_Factors":0.718581239,"Lat":30.251921,"Long":120.168068,"electricity_consumption_per_region":2.6578419987,"CO2_emissions":1909.8753964571},{"index":26,"Pools":"Huobi.pool","Locations":"Frankfurt, Germany","Carbon_Emission_Factors":0.58883,"Lat":50.110924,"Long":8.682127,"electricity_consumption_per_region":0.982245956,"CO2_emissions":578.3758862852},{"index":27,"Pools":"Huobi.pool","Locations":"Palo Alto, California, United States","Carbon_Emission_Factors":0.20553,"Lat":37.4419,"Long":-122.143,"electricity_consumption_per_region":0.982245956,"CO2_emissions":201.8810113415},{"index":28,"Pools":"Huobi.pool","Locations":"Hangzhou, Zhejiang, China","Carbon_Emission_Factors":0.718581239,"Lat":30.251921,"Long":120.168068,"electricity_consumption_per_region":0.982245956,"CO2_emissions":705.823516082},{"index":29,"Pools":"Huobi.pool","Locations":"Beijing, China","Carbon_Emission_Factors":0.982118481,"Lat":39.907501,"Long":116.397232,"electricity_consumption_per_region":0.982245956,"CO2_emissions":964.681906298},{"index":30,"Pools":"SlushPool","Locations":"Frankfurt, Germany","Carbon_Emission_Factors":0.58883,"Lat":50.110924,"Long":8.682127,"electricity_consumption_per_region":0.3813425476,"CO2_emissions":224.5459323225},{"index":31,"Pools":"SlushPool","Locations":"Ashburn, Virginia, United States","Carbon_Emission_Factors":0.2925,"Lat":39.039474,"Long":-77.491806,"electricity_consumption_per_region":0.3813425476,"CO2_emissions":111.5426951825},{"index":32,"Pools":"SlushPool","Locations":"New Jersey, United States","Carbon_Emission_Factors":0.2233,"Lat":40.0583,"Long":-74.4057,"electricity_consumption_per_region":0.3813425476,"CO2_emissions":85.1537908864},{"index":33,"Pools":"SlushPool","Locations":"New York, New York, United States","Carbon_Emission_Factors":0.18901,"Lat":40.7128,"Long":-74.006,"electricity_consumption_per_region":0.3813425476,"CO2_emissions":72.077554928},{"index":34,"Pools":"SlushPool","Locations":"Beijing, China","Carbon_Emission_Factors":0.982118481,"Lat":39.907501,"Long":116.397232,"electricity_consumption_per_region":0.3813425476,"CO2_emissions":374.5235636216},{"index":35,"Pools":"SlushPool","Locations":"Amsterdam, Netherlands","Carbon_Emission_Factors":0.45172,"Lat":52.378502,"Long":4.89998,"electricity_consumption_per_region":0.3813425476,"CO2_emissions":172.2600556166},{"index":36,"Pools":"SlushPool","Locations":"Toronto, Ontario, Canada","Carbon_Emission_Factors":0.03,"Lat":43.65345,"Long":-79.384018,"electricity_consumption_per_region":0.3813425476,"CO2_emissions":11.440276429},{"index":37,"Pools":"SlushPool","Locations":"Singapore","Carbon_Emission_Factors":0.408,"Lat":1.28967,"Long":103.850067,"electricity_consumption_per_region":0.3813425476,"CO2_emissions":155.5877594341},{"index":38,"Pools":"SlushPool","Locations":"Tokyo, Japan","Carbon_Emission_Factors":0.4658,"Lat":35.689507,"Long":139.691696,"electricity_consumption_per_region":0.3813425476,"CO2_emissions":177.6293586873},{"index":39,"Pools":"SlushPool","Locations":"Moscow, Russia","Carbon_Emission_Factors":0.3102,"Lat":55.75222,"Long":37.615559,"electricity_consumption_per_region":0.3813425476,"CO2_emissions":118.2924582756},{"index":40,"Pools":"OKExPool","Locations":"Hangzhou, Zhejiang, China","Carbon_Emission_Factors":0.718581239,"Lat":30.251921,"Long":120.168068,"electricity_consumption_per_region":1.6755960426,"CO2_emissions":1204.0518803751},{"index":41,"Pools":"OKExPool","Locations":"Hong Kong","Carbon_Emission_Factors":0.65,"Lat":22.285521,"Long":114.157692,"electricity_consumption_per_region":1.6755960426,"CO2_emissions":1089.1374277082},{"index":42,"Pools":"OKKONG","Locations":"Hangzhou, Zhejiang, China","Carbon_Emission_Factors":0.718581239,"Lat":30.251921,"Long":120.168068,"electricity_consumption_per_region":null,"CO2_emissions":null},{"index":43,"Pools":"WAYI.CN","Locations":"Hangzhou, Zhejiang, China","Carbon_Emission_Factors":0.718581239,"Lat":30.251921,"Long":120.168068,"electricity_consumption_per_region":0.4622333911,"CO2_emissions":332.1522428621},{"index":44,"Pools":"SpiderPool","Locations":"Hangzhou, Zhejiang, China","Carbon_Emission_Factors":0.718581239,"Lat":30.251921,"Long":120.168068,"electricity_consumption_per_region":0.3466750433,"CO2_emissions":249.1141821466},{"index":45,"Pools":"Sigmapool.com","Locations":"Moscow, Russia","Carbon_Emission_Factors":0.3102,"Lat":55.75222,"Long":37.615559,"electricity_consumption_per_region":null,"CO2_emissions":null},{"index":46,"Pools":"Sigmapool.com","Locations":"Saint Petersburg, Russia","Carbon_Emission_Factors":0.3102,"Lat":59.89444,"Long":30.26417,"electricity_consumption_per_region":null,"CO2_emissions":null},{"index":47,"Pools":"Region Unknown","Locations":null,"Carbon_Emission_Factors":null,"Lat":null,"Long":null,"electricity_consumption_per_region":6.1245924317,"CO2_emissions":null},{"index":48,"Pools":"Pool Unknown","Locations":null,"Carbon_Emission_Factors":null,"Lat":null,"Long":null,"electricity_consumption_per_region":3.004517042,"CO2_emissions":null},{"index":"Total","Pools":null,"Locations":null,"Carbon_Emission_Factors":null,"Lat":null,"Long":null,"electricity_consumption_per_region":80.8908434372,"CO2_emissions":36706.0450777958}]}